{"meta":{"code":200,"requestId":"55fb701c498ea692268b1e71"},"response":{"venues":[{"id":"3fd66200f964a5204ee41ee3","name":"Coffee Shop","contact":{"phone":"2122437969","formattedPhone":"(212) 243-7969"},"location":{"address":"29 Union Sq W","crossStreet":"at E 16th St","lat":40.73652118229839,"lng":-73.99086253402484,"distance":4137,"postalCode":"10003","cc":"US","city":"New York","state":"NY","country":"United States","formattedAddress":["29 Union Sq W (at E 16th St)","New York, NY 10003","United States"]},"categories":[{"id":"4bf58dd8d48988d147941735","name":"Diner","pluralName":"Diners","shortName":"Diner","icon":{"prefix":"https:\/\/ss3.4sqi.net\/img\/categories_v2\/food\/diner_","suffix":".png"},"primary":true}],"verified":true,"stats":{"checkinsCount":48382,"usersCount":27243,"tipCount":369},"url":"http:\/\/thegothamcitygroup.com","hasMenu":true,"delivery":{"url":"http:\/\/www.seamless.com\/food-delivery\/restaurant.26532.r?a=1026&utm_source=Foursquare&utm_medium=affiliate&utm_campaign=SeamlessOrderDeliveryLink","provider":{"name":"seamless"}},"reservations":{"url":"http:\/\/www.opentable.com\/single.aspx?rid=115618&ref=9601"},"menu":{"type":"Menu","label":"Menu","anchor":"View Menu","url":"https:\/\/foursquare.com\/v\/coffee-shop\/3fd66200f964a5204ee41ee3\/menu","mobileUrl":"https:\/\/foursquare.com\/v\/3fd66200f964a5204ee41ee3\/device_menu"},"allowMenuUrlEdit":true,"specials":{"count":0,"items":[]},"hereNow":{"count":4,"summary":"4 people are here","groups":[{"type":"others","name":"Other people here","count":4,"items":[]}]},"storeId":"","referralId":"v-1442541596"},{"id":"44dc96e4f964a520b0361fe3","name":"Think Coffee","contact":{"phone":"2122286226","formattedPhone":"(212) 228-6226","twitter":"thinkcoffeenyc","facebook":"269293536484453","facebookUsername":"thinkcoffeenyc","facebookName":"Think Coffee"},"location":{"address":"248 Mercer St","crossStreet":"btwn W 3rd & W 4th St","lat":40.72833809179773,"lng":-73.99526953697205,"distance":3179,"postalCode":"10012","cc":"US","city":"New York","state":"NY","country":"United States","formattedAddress":["248 Mercer St (btwn W 3rd & W 4th St)","New York, NY 10012","United States"]},"categories":[{"id":"4bf58dd8d48988d1e0931735","name":"Coffee Shop","pluralName":"Coffee Shops","shortName":"Coffee Shop","icon":{"prefix":"https:\/\/ss3.4sqi.net\/img\/categories_v2\/food\/coffeeshop_","suffix":".png"},"primary":true}],"verified":true,"stats":{"checkinsCount":32128,"usersCount":11728,"tipCount":288},"url":"http:\/\/thinkcoffeenyc.com","hasMenu":true,"menu":{"type":"Menu","label":"Menu","anchor":"View Menu","url":"https:\/\/foursquare.com\/v\/think-coffee\/44dc96e4f964a520b0361fe3\/menu","mobileUrl":"https:\/\/foursquare.com\/v\/44dc96e4f964a520b0361fe3\/device_menu"},"allowMenuUrlEdit":true,"specials":{"count":0,"items":[]},"hereNow":{"count":2,"summary":"2 people are here","groups":[{"type":"others","name":"Other people here","count":2,"items":[]}]},"referralId":"v-1442541596"},{"id":"512f8233e4b04458d4385195","name":"Stumptown Coffee Roasters","contact":{"phone":"3474147802","formattedPhone":"(347) 414-7802","twitter":"stumptowncoffee"},"location":{"address":"30 W 8th St","crossStreet":"at MacDougal St","lat":40.73281499680155,"lng":-73.99809342556301,"distance":3656,"postalCode":"10011","cc":"US","city":"New York","state":"NY","country":"United States","formattedAddress":["30 W 8th St (at MacDougal St)","New York, NY 10011","United States"]},"categories":[{"id":"4bf58dd8d48988d1e0931735","name":"Coffee Shop","pluralName":"Coffee Shops","shortName":"Coffee Shop","icon":{"prefix":"https:\/\/ss3.4sqi.net\/img\/categories_v2\/food\/coffeeshop_","suffix":".png"},"primary":true}],"verified":true,"stats":{"checkinsCount":12205,"usersCount":5446,"tipCount":185},"url":"http:\/\/t.co\/HP1jMKlOZf","allowMenuUrlEdit":true,"specials":{"count":0,"items":[]},"hereNow":{"count":1,"summary":"One other person is here","groups":[{"type":"others","name":"Other people here","count":1,"items":[]}]},"storeId":"","referralId":"v-1442541596"},{"id":"524aeb0111d2ae4d1b1eea62","name":"Bluestone Lane Coffee","contact":{"phone":"6466843771","formattedPhone":"(646) 684-3771"},"location":{"address":"30 Broad St","lat":40.7064851227941,"lng":-74.01180841424717,"distance":1230,"postalCode":"10004","cc":"US","city":"New York","state":"NY","country":"United States","formattedAddress":["30 Broad St","New York, NY 10004","United States"]},"categories":[{"id":"4bf58dd8d48988d1e0931735","name":"Coffee Shop","pluralName":"Coffee Shops","shortName":"Coffee Shop","icon":{"prefix":"https:\/\/ss3.4sqi.net\/img\/categories_v2\/food\/coffeeshop_","suffix":".png"},"primary":true}],"verified":true,"stats":{"checkinsCount":3676,"usersCount":1281,"tipCount":85},"url":"http:\/\/www.bluestonelaneny.com","hasMenu":true,"menu":{"type":"Menu","label":"Menu","anchor":"View Menu","url":"https:\/\/foursquare.com\/v\/bluestone-lane-coffee\/524aeb0111d2ae4d1b1eea62\/menu","mobileUrl":"https:\/\/foursquare.com\/v\/524aeb0111d2ae4d1b1eea62\/device_menu"},"allowMenuUrlEdit":true,"specials":{"count":0,"items":[]},"hereNow":{"count":0,"summary":"Nobody here","groups":[]},"storeId":"","referralId":"v-1442541596"},{"id":"55009054498ee8bbdc5d1845","name":"Spreadhouse Coffee","contact":{"phone":"7038636691","formattedPhone":"(703) 863-6691","facebook":"790738891016421","facebookUsername":"SpreadhouseCoffee","facebookName":"Spreadhouse Coffee"},"location":{"address":"116 Suffolk St","crossStreet":"btwn Rivington & Delancey","lat":40.719000526087285,"lng":-73.9859729195557,"distance":2423,"postalCode":"10002","cc":"US","city":"New York","state":"NY","country":"United States","formattedAddress":["116 Suffolk St (btwn Rivington & Delancey)","New York, NY 10002","United States"]},"categories":[{"id":"4bf58dd8d48988d1e0931735","name":"Coffee Shop","pluralName":"Coffee Shops","shortName":"Coffee Shop","icon":{"prefix":"https:\/\/ss3.4sqi.net\/img\/categories_v2\/food\/coffeeshop_","suffix":".png"},"primary":true}],"verified":true,"stats":{"checkinsCount":433,"usersCount":274,"tipCount":17},"url":"http:\/\/www.spreadhousecoffee.com","allowMenuUrlEdit":true,"specials":{"count":0,"items":[]},"hereNow":{"count":4,"summary":"4 people are here","groups":[{"type":"others","name":"Other people here","count":4,"items":[]}]},"venuePage":{"id":"125141177"},"referralId":"v-1442541596"},{"id":"4ca3382ef832a1cd87749be5","name":"Coffee Cart C0549","contact":{},"location":{"lat":40.70753171014427,"lng":-74.00887612901388,"distance":1124,"cc":"US","city":"New York","state":"NY","country":"United States","formattedAddress":["New York, NY","United States"]},"categories":[{"id":"4bf58dd8d48988d1cb941735","name":"Food Truck","pluralName":"Food Trucks","shortName":"Food Truck","icon":{"prefix":"https:\/\/ss3.4sqi.net\/img\/categories_v2\/food\/streetfood_","suffix":".png"},"primary":true}],"verified":false,"stats":{"checkinsCount":47,"usersCount":10,"tipCount":0},"allowMenuUrlEdit":true,"specials":{"count":0,"items":[]},"hereNow":{"count":0,"summary":"Nobody here","groups":[]},"referralId":"v-1442541596"},{"id":"53723e71498e7892c5155c07","name":"Gregorys Coffee","contact":{"phone":"2124802429","formattedPhone":"(212) 480-2429","twitter":"gregoryscoffee"},"location":{"address":"80 Broad St","crossStreet":"btwn Beaver St. & S William St.","lat":40.704406895134184,"lng":-74.01141247229273,"distance":1080,"postalCode":"10004","cc":"US","city":"New York","state":"NY","country":"United States","formattedAddress":["80 Broad St (btwn Beaver St. & S William St.)","New York, NY 10004","United States"]},"categories":[{"id":"4bf58dd8d48988d1e0931735","name":"Coffee Shop","pluralName":"Coffee Shops","shortName":"Coffee Shop","icon":{"prefix":"https:\/\/ss3.4sqi.net\/img\/categories_v2\/food\/coffeeshop_","suffix":".png"},"primary":true}],"verified":false,"stats":{"checkinsCount":1126,"usersCount":349,"tipCount":16},"url":"http:\/\/www.gregoryscoffee.com","hasMenu":true,"menu":{"type":"Menu","label":"Menu","anchor":"View Menu","url":"https:\/\/foursquare.com\/v\/gregorys-coffee\/53723e71498e7892c5155c07\/menu","mobileUrl":"https:\/\/foursquare.com\/v\/53723e71498e7892c5155c07\/device_menu"},"allowMenuUrlEdit":true,"specials":{"count":0,"items":[]},"hereNow":{"count":0,"summary":"Nobody here","groups":[]},"referralId":"v-1442541596"},{"id":"4fd106d6e4b064b8c3683c1b","name":"The Coffee Bean & Tea Leaf","contact":{"phone":"2126730050","formattedPhone":"(212) 673-0050","twitter":"coffeebeanny"},"location":{"address":"189 Bleecker St","crossStreet":"at MacDougal St","lat":40.72918796365983,"lng":-74.00126115876911,"distance":3250,"postalCode":"10012","cc":"US","city":"New York","state":"NY","country":"United States","formattedAddress":["189 Bleecker St (at MacDougal St)","New York, NY 10012","United States"]},"categories":[{"id":"4bf58dd8d48988d1e0931735","name":"Coffee Shop","pluralName":"Coffee Shops","shortName":"Coffee Shop","icon":{"prefix":"https:\/\/ss3.4sqi.net\/img\/categories_v2\/food\/coffeeshop_","suffix":".png"},"primary":true}],"verified":true,"stats":{"checkinsCount":6701,"usersCount":3352,"tipCount":53},"url":"http:\/\/t.co\/PcFJzgI4oW","allowMenuUrlEdit":true,"specials":{"count":0,"items":[]},"hereNow":{"count":0,"summary":"Nobody here","groups":[]},"storeId":"","referralId":"v-1442541596"},{"id":"525eeb3811d2c49bf03e23ec","name":"Toby's Estate Coffee","contact":{"phone":"6465590161","formattedPhone":"(646) 559-0161","twitter":"tobysbrooklyn"},"location":{"address":"160 5th Ave","crossStreet":"btwn E 20th & E 21st St","lat":40.73995750527805,"lng":-73.99083852767944,"distance":4514,"postalCode":"10010","cc":"US","city":"New York","state":"NY","country":"United States","formattedAddress":["160 5th Ave (btwn E 20th & E 21st St)","New York, NY 10010","United States"]},"categories":[{"id":"4bf58dd8d48988d1e0931735","name":"Coffee Shop","pluralName":"Coffee Shops","shortName":"Coffee Shop","icon":{"prefix":"https:\/\/ss3.4sqi.net\/img\/categories_v2\/food\/coffeeshop_","suffix":".png"},"primary":true}],"verified":true,"stats":{"checkinsCount":10901,"usersCount":4098,"tipCount":145},"url":"http:\/\/www.tobysestate.com","allowMenuUrlEdit":true,"specials":{"count":0,"items":[]},"hereNow":{"count":0,"summary":"Nobody here","groups":[]},"storeId":"","referralId":"v-1442541596"},{"id":"53051e8b498e331dc90d6eb4","name":"Gregorys Coffee","contact":{"phone":"6466829225","formattedPhone":"(646) 682-9225","twitter":"gregoryscoffee"},"location":{"address":"42 Broadway","crossStreet":"btwn Exchange Pl & Morris St","lat":40.70628467608979,"lng":-74.01291016145517,"distance":1294,"postalCode":"10004","cc":"US","neighborhood":"Financial District","city":"New York","state":"NY","country":"United States","formattedAddress":["42 Broadway (btwn Exchange Pl & Morris St)","New York, NY 10004","United States"]},"categories":[{"id":"4bf58dd8d48988d1e0931735","name":"Coffee Shop","pluralName":"Coffee Shops","shortName":"Coffee Shop","icon":{"prefix":"https:\/\/ss3.4sqi.net\/img\/categories_v2\/food\/coffeeshop_","suffix":".png"},"primary":true}],"verified":false,"stats":{"checkinsCount":1790,"usersCount":786,"tipCount":23},"url":"http:\/\/www.gregoryscoffee.com","allowMenuUrlEdit":true,"specials":{"count":0,"items":[]},"hereNow":{"count":0,"summary":"Nobody here","groups":[]},"referralId":"v-1442541596"},{"id":"511ec188e4b03cb4b9978ed6","name":"The Coffee Bean & Tea Leaf","contact":{"phone":"2122136100","formattedPhone":"(212) 213-6100","twitter":"coffeebeanny","facebookUsername":"CoffeeBeanNY","facebookName":"The Coffee Bean & Tea Leaf - NY"},"location":{"address":"606 2nd Ave","crossStreet":"at E 33rd St.","lat":40.74423729551579,"lng":-73.97611320018768,"distance":5320,"postalCode":"10016","cc":"US","city":"New York","state":"NY","country":"United States","formattedAddress":["606 2nd Ave (at E 33rd St.)","New York, NY 10016","United States"]},"categories":[{"id":"4bf58dd8d48988d1e0931735","name":"Coffee Shop","pluralName":"Coffee Shops","shortName":"Coffee Shop","icon":{"prefix":"https:\/\/ss3.4sqi.net\/img\/categories_v2\/food\/coffeeshop_","suffix":".png"},"primary":true}],"verified":true,"stats":{"checkinsCount":3827,"usersCount":1395,"tipCount":31},"url":"http:\/\/t.co\/PcFJzgI4oW","allowMenuUrlEdit":true,"specials":{"count":0,"items":[]},"hereNow":{"count":1,"summary":"One other person is here","groups":[{"type":"others","name":"Other people here","count":1,"items":[]}]},"referralId":"v-1442541596"},{"id":"4ae33a3df964a520f99121e3","name":"Think Coffee","contact":{"phone":"2124983094","formattedPhone":"(212) 498-3094","twitter":"thinkcoffeenyc","facebook":"269293536484453","facebookUsername":"thinkcoffeenyc","facebookName":"Think Coffee"},"location":{"address":"123 4th Ave","crossStreet":"btwn 12th & 13th St","lat":40.733029,"lng":-73.990038,"distance":3771,"postalCode":"10003","cc":"US","city":"New York","state":"NY","country":"United States","formattedAddress":["123 4th Ave (btwn 12th & 13th St)","New York, NY 10003","United States"]},"categories":[{"id":"4bf58dd8d48988d1e0931735","name":"Coffee Shop","pluralName":"Coffee Shops","shortName":"Coffee Shop","icon":{"prefix":"https:\/\/ss3.4sqi.net\/img\/categories_v2\/food\/coffeeshop_","suffix":".png"},"primary":true}],"verified":true,"stats":{"checkinsCount":26878,"usersCount":11320,"tipCount":209},"url":"http:\/\/thinkcoffeenyc.com","hasMenu":true,"menu":{"type":"Menu","label":"Menu","anchor":"View Menu","url":"https:\/\/foursquare.com\/v\/think-coffee\/4ae33a3df964a520f99121e3\/menu","mobileUrl":"https:\/\/foursquare.com\/v\/4ae33a3df964a520f99121e3\/device_menu"},"allowMenuUrlEdit":true,"specials":{"count":0,"items":[]},"hereNow":{"count":0,"summary":"Nobody here","groups":[]},"storeId":"","referralId":"v-1442541596"},{"id":"4aa52d50f964a520834720e3","name":"Stumptown Coffee Roasters","contact":{"phone":"3474147805","formattedPhone":"(347) 414-7805","twitter":"stumptowncoffee","facebook":"187702397782","facebookUsername":"stumptowncoffee","facebookName":"Stumptown Coffee Roasters"},"location":{"address":"18 W 29th St","crossStreet":"at Broadway","lat":40.745901560214506,"lng":-73.98814227092512,"distance":5206,"postalCode":"10001","cc":"US","city":"New York","state":"NY","country":"United States","formattedAddress":["18 W 29th St (at Broadway)","New York, NY 10001","United States"]},"categories":[{"id":"4bf58dd8d48988d1e0931735","name":"Coffee Shop","pluralName":"Coffee Shops","shortName":"Coffee Shop","icon":{"prefix":"https:\/\/ss3.4sqi.net\/img\/categories_v2\/food\/coffeeshop_","suffix":".png"},"primary":true}],"verified":true,"stats":{"checkinsCount":49575,"usersCount":18363,"tipCount":532},"url":"http:\/\/stumptowncoffee.com","allowMenuUrlEdit":true,"specials":{"count":0,"items":[]},"hereNow":{"count":0,"summary":"Nobody here","groups":[]},"venuePage":{"id":"40067874"},"referralId":"v-1442541596"},{"id":"491ada01f964a52072521fe3","name":"Think Coffee","contact":{"phone":"2125333366","formattedPhone":"(212) 533-3366","twitter":"thinkcoffeenyc","facebook":"269293536484453","facebookUsername":"thinkcoffeenyc","facebookName":"Think Coffee"},"location":{"address":"1 Bleecker St","crossStreet":"at Bowery","lat":40.725352121560675,"lng":-73.99239420890808,"distance":2894,"postalCode":"10012","cc":"US","city":"New York","state":"NY","country":"United States","formattedAddress":["1 Bleecker St (at Bowery)","New York, NY 10012","United States"]},"categories":[{"id":"4bf58dd8d48988d1e0931735","name":"Coffee Shop","pluralName":"Coffee Shops","shortName":"Coffee Shop","icon":{"prefix":"https:\/\/ss3.4sqi.net\/img\/categories_v2\/food\/coffeeshop_","suffix":".png"},"primary":true}],"verified":true,"stats":{"checkinsCount":18736,"usersCount":8510,"tipCount":140},"url":"http:\/\/thinkcoffeenyc.com","hasMenu":true,"menu":{"type":"Menu","label":"Menu","anchor":"View Menu","url":"https:\/\/foursquare.com\/v\/think-coffee\/491ada01f964a52072521fe3\/menu","mobileUrl":"https:\/\/foursquare.com\/v\/491ada01f964a52072521fe3\/device_menu"},"allowMenuUrlEdit":true,"specials":{"count":0,"items":[]},"hereNow":{"count":0,"summary":"Nobody here","groups":[]},"storeId":"","referralId":"v-1442541596"},{"id":"4bffbb33daf9c9b65197faef","name":"Coffee Cart","contact":{},"location":{"address":"60 Centre St","crossStreet":"Broadway and chambers","lat":40.714389,"lng":-74.002791,"distance":1618,"postalCode":"10007","cc":"US","city":"New York","state":"NY","country":"United States","formattedAddress":["60 Centre St (Broadway and chambers)","New York, NY 10007","United States"]},"categories":[{"id":"4bf58dd8d48988d1e0931735","name":"Coffee Shop","pluralName":"Coffee Shops","shortName":"Coffee Shop","icon":{"prefix":"https:\/\/ss3.4sqi.net\/img\/categories_v2\/food\/coffeeshop_","suffix":".png"},"primary":true}],"verified":false,"stats":{"checkinsCount":205,"usersCount":47,"tipCount":0},"allowMenuUrlEdit":true,"specials":{"count":0,"items":[]},"hereNow":{"count":0,"summary":"Nobody here","groups":[]},"referralId":"v-1442541596"},{"id":"49d7b51ff964a520515d1fe3","name":"Gimme! Coffee","contact":{"phone":"2122264011","formattedPhone":"(212) 226-4011","twitter":"gimmecoffee"},"location":{"address":"228 Mott St","crossStreet":"btwn Prince & Spring St","lat":40.722279576782924,"lng":-73.99517675668822,"distance":2513,"postalCode":"10012","cc":"US","city":"New York","state":"NY","country":"United States","formattedAddress":["228 Mott St (btwn Prince & Spring St)","New York, NY 10012","United States"]},"categories":[{"id":"4bf58dd8d48988d1e0931735","name":"Coffee Shop","pluralName":"Coffee Shops","shortName":"Coffee Shop","icon":{"prefix":"https:\/\/ss3.4sqi.net\/img\/categories_v2\/food\/coffeeshop_","suffix":".png"},"primary":true}],"verified":true,"stats":{"checkinsCount":20244,"usersCount":5251,"tipCount":218},"url":"http:\/\/gimmecoffee.com","hasMenu":true,"menu":{"type":"Menu","label":"Menu","anchor":"View Menu","url":"https:\/\/foursquare.com\/v\/gimme-coffee\/49d7b51ff964a520515d1fe3\/menu","mobileUrl":"https:\/\/foursquare.com\/v\/49d7b51ff964a520515d1fe3\/device_menu"},"allowMenuUrlEdit":true,"specials":{"count":0,"items":[]},"hereNow":{"count":0,"summary":"Nobody here","groups":[]},"venuePage":{"id":"54276959"},"storeId":"","referralId":"v-1442541596"},{"id":"53206275498eaacdaca9b857","name":"Gregory's Coffee","contact":{"phone":"6469187274","formattedPhone":"(646) 918-7274"},"location":{"address":"100 Wall St","crossStreet":"at Front St","lat":40.705019248032876,"lng":-74.00671275080619,"distance":795,"postalCode":"10005","cc":"US","city":"New York","state":"NY","country":"United States","formattedAddress":["100 Wall St (at Front St)","New York, NY 10005","United States"]},"categories":[{"id":"4bf58dd8d48988d1e0931735","name":"Coffee Shop","pluralName":"Coffee Shops","shortName":"Coffee Shop","icon":{"prefix":"https:\/\/ss3.4sqi.net\/img\/categories_v2\/food\/coffeeshop_","suffix":".png"},"primary":true}],"verified":true,"stats":{"checkinsCount":1499,"usersCount":540,"tipCount":22},"url":"http:\/\/gregoryscoffee.com","allowMenuUrlEdit":true,"specials":{"count":0,"items":[]},"hereNow":{"count":0,"summary":"Nobody here","groups":[]},"referralId":"v-1442541596"},{"id":"523c42cc498ee761417b3b67","name":"El Rey Coffee Bar & Luncheonette","contact":{"phone":"2122603950","formattedPhone":"(212) 260-3950"},"location":{"address":"100 Stanton St","crossStreet":"at Ludlow St","lat":40.721391232676666,"lng":-73.98819392184943,"distance":2581,"postalCode":"10002","cc":"US","city":"New York","state":"NY","country":"United States","formattedAddress":["100 Stanton St (at Ludlow St)","New York, NY 10002","United States"]},"categories":[{"id":"4bf58dd8d48988d1e0931735","name":"Coffee Shop","pluralName":"Coffee Shops","shortName":"Coffee Shop","icon":{"prefix":"https:\/\/ss3.4sqi.net\/img\/categories_v2\/food\/coffeeshop_","suffix":".png"},"primary":true}],"verified":true,"stats":{"checkinsCount":3995,"usersCount":1844,"tipCount":117},"url":"http:\/\/www.elreynyc.com","menu":{"type":"Menu","label":"Menu","anchor":"View Menu","url":"http:\/\/www.elreynyc.com\/menu.html","mobileUrl":"http:\/\/www.elreynyc.com\/menu.html","externalUrl":"http:\/\/www.elreynyc.com\/menu.html"},"allowMenuUrlEdit":true,"specials":{"count":0,"items":[]},"hereNow":{"count":0,"summary":"Nobody here","groups":[]},"venuePage":{"id":"110986061"},"referralId":"v-1442541596"},{"id":"53090c96498e0672e0ff813f","name":"Blue Bottle Coffee","contact":{"phone":"5106533394","formattedPhone":"(510) 653-3394","twitter":"bluebottleroast"},"location":{"address":"85 Dean St","crossStreet":"at Smith St","lat":40.68723641425042,"lng":-73.9898237883206,"distance":1660,"postalCode":"11201","cc":"US","city":"Brooklyn","state":"NY","country":"United States","formattedAddress":["85 Dean St (at Smith St)","Brooklyn, NY 11201","United States"]},"categories":[{"id":"4bf58dd8d48988d1e0931735","name":"Coffee Shop","pluralName":"Coffee Shops","shortName":"Coffee Shop","icon":{"prefix":"https:\/\/ss3.4sqi.net\/img\/categories_v2\/food\/coffeeshop_","suffix":".png"},"primary":true}],"verified":false,"stats":{"checkinsCount":4286,"usersCount":1611,"tipCount":69},"url":"https:\/\/bluebottlecoffee.com","allowMenuUrlEdit":true,"specials":{"count":0,"items":[]},"hereNow":{"count":0,"summary":"Nobody here","groups":[]},"referralId":"v-1442541596"},{"id":"4e286bb01fc7f0a6e14995a7","name":"The Coffee Bean & Tea Leaf","contact":{"phone":"2125753854","formattedPhone":"(212) 575-3854","twitter":"coffeebeanny","facebook":"248598678500616","facebookUsername":"CoffeeBeanNY","facebookName":"The Coffee Bean & Tea Leaf - NY"},"location":{"address":"1412 Broadway","crossStreet":"btwn 39th & 40th St","lat":40.75379775034375,"lng":-73.9868152141571,"distance":6091,"postalCode":"10018","cc":"US","city":"New York","state":"NY","country":"United States","formattedAddress":["1412 Broadway (btwn 39th & 40th St)","New York, NY 10018","United States"]},"categories":[{"id":"4bf58dd8d48988d1e0931735","name":"Coffee Shop","pluralName":"Coffee Shops","shortName":"Coffee Shop","icon":{"prefix":"https:\/\/ss3.4sqi.net\/img\/categories_v2\/food\/coffeeshop_","suffix":".png"},"primary":true}],"verified":true,"stats":{"checkinsCount":11926,"usersCount":4583,"tipCount":100},"url":"http:\/\/t.co\/PcFJzgI4oW","hasMenu":true,"menu":{"type":"Menu","label":"Menu","anchor":"View Menu","url":"https:\/\/foursquare.com\/v\/the-coffee-bean--tea-leaf\/4e286bb01fc7f0a6e14995a7\/menu","mobileUrl":"https:\/\/foursquare.com\/v\/4e286bb01fc7f0a6e14995a7\/device_menu"},"allowMenuUrlEdit":true,"specials":{"count":0,"items":[]},"hereNow":{"count":0,"summary":"Nobody here","groups":[]},"referralId":"v-1442541596"},{"id":"4b843a9cf964a520f22831e3","name":"Blue Bottle Coffee","contact":{"phone":"7185345488","formattedPhone":"(718) 534-5488","twitter":"bluebottlenyc"},"location":{"address":"160 Berry St","crossStreet":"btwn N Fourth & N Fifth St.","lat":40.71735292817359,"lng":-73.96039224047603,"distance":3860,"postalCode":"11249","cc":"US","city":"Brooklyn","state":"NY","country":"United States","formattedAddress":["160 Berry St (btwn N Fourth & N Fifth St.)","Brooklyn, NY 11249","United States"]},"categories":[{"id":"4bf58dd8d48988d1e0931735","name":"Coffee Shop","pluralName":"Coffee Shops","shortName":"Coffee Shop","icon":{"prefix":"https:\/\/ss3.4sqi.net\/img\/categories_v2\/food\/coffeeshop_","suffix":".png"},"primary":true}],"verified":true,"stats":{"checkinsCount":35259,"usersCount":12621,"tipCount":333},"url":"http:\/\/bluebottlecoffee.net","hasMenu":true,"menu":{"type":"Menu","label":"Menu","anchor":"View Menu","url":"https:\/\/foursquare.com\/v\/blue-bottle-coffee\/4b843a9cf964a520f22831e3\/menu","mobileUrl":"https:\/\/foursquare.com\/v\/4b843a9cf964a520f22831e3\/device_menu"},"allowMenuUrlEdit":true,"specials":{"count":0,"items":[]},"hereNow":{"count":0,"summary":"Nobody here","groups":[]},"referralId":"v-1442541596"},{"id":"4bba876698c7ef3b79403302","name":"Cyber Cigar Coffee Bar","contact":{},"location":{"lat":40.705704,"lng":-74.002606,"distance":671,"postalCode":"10038","cc":"US","city":"New York","state":"NY","country":"United States","formattedAddress":["New York, NY 10038","United States"]},"categories":[{"id":"4bf58dd8d48988d1e0931735","name":"Coffee Shop","pluralName":"Coffee Shops","shortName":"Coffee Shop","icon":{"prefix":"https:\/\/ss3.4sqi.net\/img\/categories_v2\/food\/coffeeshop_","suffix":".png"},"primary":true}],"verified":false,"stats":{"checkinsCount":52,"usersCount":39,"tipCount":0},"allowMenuUrlEdit":true,"specials":{"count":0,"items":[]},"hereNow":{"count":0,"summary":"Nobody here","groups":[]},"referralId":"v-1442541596"},{"id":"3fd66200f964a52008e91ee3","name":"Irving Farm Coffee Roasters","contact":{"phone":"2129955252","formattedPhone":"(212) 995-5252","twitter":"irvingfarm","facebook":"183609028042","facebookUsername":"IrvingFarmCoffeeRoasters","facebookName":"Irving Farm Coffee Roasters"},"location":{"address":"71 Irving Pl","crossStreet":"btwn 18th & 19th St","lat":40.73678125878656,"lng":-73.98684525426994,"distance":4242,"postalCode":"10003","cc":"US","city":"New York","state":"NY","country":"United States","formattedAddress":["71 Irving Pl (btwn 18th & 19th St)","New York, NY 10003","United States"]},"categories":[{"id":"4bf58dd8d48988d1e0931735","name":"Coffee Shop","pluralName":"Coffee Shops","shortName":"Coffee Shop","icon":{"prefix":"https:\/\/ss3.4sqi.net\/img\/categories_v2\/food\/coffeeshop_","suffix":".png"},"primary":true}],"verified":true,"stats":{"checkinsCount":21701,"usersCount":7654,"tipCount":227},"url":"http:\/\/www.irvingfarm.com","hasMenu":true,"menu":{"type":"Menu","label":"Menu","anchor":"View Menu","url":"https:\/\/foursquare.com\/v\/irving-farm-coffee-roasters\/3fd66200f964a52008e91ee3\/menu","mobileUrl":"https:\/\/foursquare.com\/v\/3fd66200f964a52008e91ee3\/device_menu"},"allowMenuUrlEdit":true,"specials":{"count":1,"items":[{"id":"54dce7a3498ee863b99fcab1","type":"frequency","message":"Loyalty cards available. Your tenth drink on us!","photo":{"id":"54dce7a311d2753c5688a476","createdAt":1423763363,"prefix":"https:\/\/irs0.4sqi.net\/img\/general\/","suffix":"\/37699868_6DiNYMLd3WUnWJcMNslVVJQBu2E4clabowi82TnbYdo.jpg","width":2328,"height":2426},"description":"","unlocked":true,"icon":"default","title":"Special","state":"unlocked","provider":"foursquare","redemption":"webview","interaction":{"entryUrl":"https:\/\/foursquare.com\/device\/specials\/54dce7a3498ee863b99fcab1?venueId=3fd66200f964a52008e91ee3"},"page":{"id":"37699868","firstName":"Irving Farm Coffee Roasters","gender":"none","photo":{"prefix":"https:\/\/irs0.4sqi.net\/img\/user\/","suffix":"\/37699868-PJ31GKTZVE0PEMX3.jpg"},"type":"chain","tips":{"count":7},"lists":{"groups":[{"type":"created","count":2,"items":[]}]},"homeCity":"New York, NY","bio":"","contact":{"twitter":"irvingfarm"}}}]},"hereNow":{"count":0,"summary":"Nobody here","groups":[]},"referralId":"v-1442541596"},{"id":"518c39dd498e9692c844af13","name":"The Coffee Bean & Tea Leaf","contact":{"phone":"2127410857","formattedPhone":"(212) 741-0857","twitter":"coffeebeanny","facebook":"248598678500616","facebookUsername":"CoffeeBeanNY","facebookName":"The Coffee Bean & Tea Leaf - NY"},"location":{"address":"350 W 14th St","crossStreet":"btwn Hudson St & 14 St","lat":40.74079228698535,"lng":-74.00511172041008,"distance":4561,"postalCode":"10014","cc":"US","city":"New York","state":"NY","country":"United States","formattedAddress":["350 W 14th St (btwn Hudson St & 14 St)","New York, NY 10014","United States"]},"categories":[{"id":"4bf58dd8d48988d1e0931735","name":"Coffee Shop","pluralName":"Coffee Shops","shortName":"Coffee Shop","icon":{"prefix":"https:\/\/ss3.4sqi.net\/img\/categories_v2\/food\/coffeeshop_","suffix":".png"},"primary":true}],"verified":true,"stats":{"checkinsCount":2909,"usersCount":1965,"tipCount":40},"url":"http:\/\/t.co\/PcFJzgI4oW","allowMenuUrlEdit":true,"specials":{"count":0,"items":[]},"hereNow":{"count":0,"summary":"Nobody here","groups":[]},"referralId":"v-1442541596"},{"id":"4eba99d3be7b1e562036cb46","name":"Toby\u2019s Estate Coffee","contact":{"phone":"3474576160","formattedPhone":"(347) 457-6160","twitter":"tobysbrooklyn","facebook":"166431326755354","facebookUsername":"tobysestatebrooklyn","facebookName":"Toby's Estate Brooklyn"},"location":{"address":"125 N 6th St","crossStreet":"btwn Bedford Ave & Berry St","lat":40.71779411151556,"lng":-73.95901679992676,"distance":3985,"postalCode":"11249","cc":"US","city":"Brooklyn","state":"NY","country":"United States","formattedAddress":["125 N 6th St (btwn Bedford Ave & Berry St)","Brooklyn, NY 11249","United States"]},"categories":[{"id":"4bf58dd8d48988d1e0931735","name":"Coffee Shop","pluralName":"Coffee Shops","shortName":"Coffee Shop","icon":{"prefix":"https:\/\/ss3.4sqi.net\/img\/categories_v2\/food\/coffeeshop_","suffix":".png"},"primary":true}],"verified":true,"stats":{"checkinsCount":18809,"usersCount":8167,"tipCount":288},"url":"http:\/\/www.tobysestate.com","allowMenuUrlEdit":true,"specials":{"count":0,"items":[]},"hereNow":{"count":0,"summary":"Nobody here","groups":[]},"storeId":"","referralId":"v-1442541596"},{"id":"4f22b060e4b02a95fc886761","name":"Caffe Vita Coffee Roasting Co.","contact":{"phone":"2122608482","formattedPhone":"(212) 260-8482","twitter":"caffevita"},"location":{"address":"124 Ludlow St","crossStreet":"btwn Delancey & Rivington St.","lat":40.71974134826093,"lng":-73.9886415626111,"distance":2397,"postalCode":"10002","cc":"US","city":"New York","state":"NY","country":"United States","formattedAddress":["124 Ludlow St (btwn Delancey & Rivington St.)","New York, NY 10002","United States"]},"categories":[{"id":"4bf58dd8d48988d1e0931735","name":"Coffee Shop","pluralName":"Coffee Shops","shortName":"Coffee Shop","icon":{"prefix":"https:\/\/ss3.4sqi.net\/img\/categories_v2\/food\/coffeeshop_","suffix":".png"},"primary":true}],"verified":true,"stats":{"checkinsCount":3754,"usersCount":1766,"tipCount":69},"url":"http:\/\/www.caffevita.com","allowMenuUrlEdit":true,"specials":{"count":0,"items":[]},"hereNow":{"count":0,"summary":"Nobody here","groups":[]},"referralId":"v-1442541596"},{"id":"4e4d9c17814dd49447e709e1","name":"Gasoline Alley Coffee","contact":{"phone":"2129330113","formattedPhone":"(212) 933-0113","twitter":"gasolinealleyco"},"location":{"address":"325 Lafayette St","crossStreet":"btwn Bleecker & E Houston St","lat":40.725551325924265,"lng":-73.99476528167725,"distance":2878,"postalCode":"10012","cc":"US","city":"New York","state":"NY","country":"United States","formattedAddress":["325 Lafayette St (btwn Bleecker & E Houston St)","New York, NY 10012","United States"]},"categories":[{"id":"4bf58dd8d48988d1e0931735","name":"Coffee Shop","pluralName":"Coffee Shops","shortName":"Coffee Shop","icon":{"prefix":"https:\/\/ss3.4sqi.net\/img\/categories_v2\/food\/coffeeshop_","suffix":".png"},"primary":true}],"verified":true,"stats":{"checkinsCount":19983,"usersCount":5540,"tipCount":228},"url":"http:\/\/gasolinealleycoffee.com","allowMenuUrlEdit":true,"specials":{"count":0,"items":[]},"hereNow":{"count":0,"summary":"Nobody here","groups":[]},"venuePage":{"id":"53804667"},"storeId":"","referralId":"v-1442541596"},{"id":"460ab8cdf964a520f1441fe3","name":"Gregory's Coffee","contact":{"phone":"2129798600","formattedPhone":"(212) 979-8600"},"location":{"address":"327 Park Ave S","crossStreet":"btwn E 24th & E 25th St","lat":40.741136037741065,"lng":-73.9857892696372,"distance":4733,"postalCode":"10010","cc":"US","city":"New York","state":"NY","country":"United States","formattedAddress":["327 Park Ave S (btwn E 24th & E 25th St)","New York, NY 10010","United States"]},"categories":[{"id":"4bf58dd8d48988d1e0931735","name":"Coffee Shop","pluralName":"Coffee Shops","shortName":"Coffee Shop","icon":{"prefix":"https:\/\/ss3.4sqi.net\/img\/categories_v2\/food\/coffeeshop_","suffix":".png"},"primary":true}],"verified":true,"stats":{"checkinsCount":25302,"usersCount":6335,"tipCount":193},"url":"http:\/\/gregoryscoffee.com","hasMenu":true,"menu":{"type":"Menu","label":"Menu","anchor":"View Menu","url":"https:\/\/foursquare.com\/v\/gregorys-coffee\/460ab8cdf964a520f1441fe3\/menu","mobileUrl":"https:\/\/foursquare.com\/v\/460ab8cdf964a520f1441fe3\/device_menu"},"allowMenuUrlEdit":true,"specials":{"count":0,"items":[]},"hereNow":{"count":1,"summary":"One other person is here","groups":[{"type":"others","name":"Other people here","count":1,"items":[]}]},"referralId":"v-1442541596"},{"id":"52716bc711d23edce606567d","name":"Jack's Stir Brew Coffee","contact":{"phone":"2122277631","formattedPhone":"(212) 227-7631"},"location":{"address":"222 Front St","lat":40.70750429754072,"lng":-74.0021334239295,"distance":854,"postalCode":"10038","cc":"US","city":"New York","state":"NY","country":"United States","formattedAddress":["222 Front St","New York, NY 10038","United States"]},"categories":[{"id":"4bf58dd8d48988d16d941735","name":"Café","pluralName":"Cafés","shortName":"Café","icon":{"prefix":"https:\/\/ss3.4sqi.net\/img\/categories_v2\/food\/cafe_","suffix":".png"},"primary":true}],"verified":false,"stats":{"checkinsCount":1802,"usersCount":749,"tipCount":27},"url":"http:\/\/jacksstirbrew.com","allowMenuUrlEdit":true,"specials":{"count":0,"items":[]},"hereNow":{"count":0,"summary":"Nobody here","groups":[]},"referralId":"v-1442541596"},{"id":"4ecc046b0e61aaf0384f19c4","name":"Think Coffee","contact":{"phone":"2122556452","formattedPhone":"(212) 255-6452","twitter":"thinkcoffeenyc","facebook":"269293536484453","facebookUsername":"thinkcoffeenyc","facebookName":"Think Coffee"},"location":{"address":"73 8th Ave","crossStreet":"14th St.","lat":40.73946479913673,"lng":-74.00265603689895,"distance":4398,"postalCode":"10014","cc":"US","city":"New York","state":"NY","country":"United States","formattedAddress":["73 8th Ave (14th St.)","New York, NY 10014","United States"]},"categories":[{"id":"4bf58dd8d48988d1e0931735","name":"Coffee Shop","pluralName":"Coffee Shops","shortName":"Coffee Shop","icon":{"prefix":"https:\/\/ss3.4sqi.net\/img\/categories_v2\/food\/coffeeshop_","suffix":".png"},"primary":true}],"verified":true,"stats":{"checkinsCount":14489,"usersCount":6467,"tipCount":176},"url":"http:\/\/thinkcoffeenyc.com","hasMenu":true,"menu":{"type":"Menu","label":"Menu","anchor":"View Menu","url":"https:\/\/foursquare.com\/v\/think-coffee\/4ecc046b0e61aaf0384f19c4\/menu","mobileUrl":"https:\/\/foursquare.com\/v\/4ecc046b0e61aaf0384f19c4\/device_menu"},"allowMenuUrlEdit":true,"specials":{"count":0,"items":[]},"hereNow":{"count":0,"summary":"Nobody here","groups":[]},"storeId":"","referralId":"v-1442541596"}]}}